[
  {
    "name": "송악산인증센터",
    "tel": "",
    "address": "제주특별자치도 서귀포시 대정읍 상모리 157-2",
    "longitude": 126.2895389,
    "latitude": 33.2068775,
  },
  {
    "name": "용두암인증센터",
    "tel": "",
    "address": "제주특별자치도 제주시 용담2동",
    "longitude": 126.5112267,
    "latitude": 33.5150994,
  },
  {
    "name": "함덕해수욕장인증센터",
    "tel": "",
    "address": "제주특별자치도 제주시 조천읍 함덕리",
    "longitude": 126.6723826,
    "latitude": 33.5441846,
  },
  {
    "name": "성산일출봉인증센터",
    "tel": "",
    "address": "제주특별자치도 서귀포시 성산읍 오조리",
    "longitude": 126.9242820,
    "latitude": 33.4686629,
  },
  {
    "name": "쇠소깍인증센터",
    "tel": "",
    "address": "제주특별자치도 서귀포시 하효동",
    "longitude": 126.6232339,
    "latitude": 33.2523116,
  },
  {
    "name": "김녕해수욕장인증센터",
    "tel": "",
    "address": "제주특별자치도 제주시 구좌읍 김녕리",
    "longitude": 126.7599194,
    "latitude": 33.5568675,
  },
  {
    "name": "해거름마을공원인증센터",
    "tel": "",
    "address": "제주특별자치도 제주시 한경면 판포리",
    "longitude": 126.2064745,
    "latitude": 33.3699757,
  },
  {
    "name": "법환바당인증센터",
    "tel": "",
    "address": "제주특별자치도 서귀포시 법환동",
    "longitude": 126.5150614,
    "latitude": 33.2358681,
  },
  {
    "name": "표선해변인증센터",
    "tel": "",
    "address": "제주특별자치도 서귀포시 표선면 표선리",
    "longitude": 126.8407390,
    "latitude": 33.3255846,
  },
  {
    "name": "다락쉼터인증센터",
    "tel": "",
    "address": "제주특별자치도 제주시 애월읍 고내리",
    "longitude": 126.3408170,
    "latitude": 33.4701520,

  }
]
